[
    {
        "city_en": "Kasserine",
        "latlon": "35.167617, 8.831479",
        "type": "c",
        "title": "المغازة العــــامة",
        "mun": "القصرين",
        "city": "القصرين"
    },
    {
        "city_en": "Kasserine",
        "latlon": "35.166715, 8.829250",
        "type": "c",
        "title": "مغازة البركة",
        "mun": "القصرين",
        "city": "القصرين"
    },
    {
        "city_en": "Kasserine",
        "latlon": "35.166928, 8.830696",
        "type": "p",
        "title": "مكتب بريد القصرين",
        "mun": "القصرين",
        "city": "القصرين"
    },
    {
        "city_en": "Kasserine",
        "latlon": "35.570547, 8.675282",
        "type": "p",
        "title": "مكتب بريد خمودة، مكتب بريد بودرياس",
        "mun": "خمودة",
        "city": "القصرين"
    },
    {
        "city_en": "Kasserine",
        "latlon": "34.950758, 8.568160",
        "type": "p",
        "title": "مكتب بريد سبيبة",
        "mun": "سبيبة",
        "city": "القصرين"
    },
    {
        "city_en": "Kasserine",
        "latlon": "35.542199, 9.074106",
        "type": "p",
        "title": "مكتب بريد سبيطلة",
        "mun": "سبيطلة",
        "city": "القصرين"
    },
    {
        "city_en": "Kasserine",
        "latlon": "34.946856, 8.566521",
        "type": "p",
        "title": "مكتب بريد فريانة",
        "mun": "فريانة",
        "city": "القصرين"
    },
    {
        "city_en": "Kasserine",
        "latlon": "36.701546, 10.161436",
        "type": "p",
        "title": "مكتب بريد فوسانة",
        "mun": "فوسانة",
        "city": "القصرين"
    },
    {
        "city_en": "Kairouan",
        "latlon": "35.681362, 10.104172",
        "type": "p",
        "title": "مكتب البريد عقبة",
        "mun": "القيروان",
        "city": "القيروان"
    },
    {
        "city_en": "Kairouan",
        "latlon": "35.671711, 10.083070",
        "type": "sm",
        "title": "مكتب الدائرة البلدية النصر",
        "mun": "القيروان",
        "city": "القيروان"
    },
    {
        "city_en": "Kairouan",
        "latlon": "35.659067, 10.088748",
        "type": "sm",
        "title": "مكتب الدئرة البلدية المنصورة",
        "mun": "القيروان",
        "city": "القيروان"
    },
    {
        "city_en": "Kairouan",
        "latlon": "35.672267, 10.102790",
        "type": "c",
        "title": "مكتب المغازة العامة",
        "mun": "القيروان",
        "city": "القيروان"
    },
    {
        "city_en": "Kairouan",
        "latlon": "35.685101, 10.095103",
        "type": "p",
        "title": "مكتب بريد األغالبة",
        "mun": "القيروان",
        "city": "القيروان"
    },
    {
        "city_en": "Kairouan",
        "latlon": "35.692883, 10.097101",
        "type": "sm",
        "title": "مكتب دائرة البلدية الجبلية",
        "mun": "القيروان",
        "city": "القيروان"
    },
    {
        "city_en": "Kef",
        "latlon": "36.173173, 8.705967",
        "type": "c",
        "title": "المغازة العامة",
        "mun": "الكاف",
        "city": "الكاف"
    },
    {
        "city_en": "Kef",
        "latlon": "36.158019, 8.696641",
        "type": "sm",
        "title": "دائرة بلدية الكاف الغربية",
        "mun": "الكاف",
        "city": "الكاف"
    },
    {
        "city_en": "Kef",
        "latlon": "36.166833, 8.703083",
        "type": "t",
        "title": "محطة النقل البري",
        "mun": "الكاف",
        "city": "الكاف"
    },
    {
        "city_en": "Kef",
        "latlon": "36.075076, 9.025467",
        "type": "c",
        "title": "مونوبري السرس",
        "mun": "السرس",
        "city": "الكاف"
    },
    {
        "city_en": "Kef",
        "latlon": "36.175952, 8.709514",
        "type": "c",
        "title": "مونوبري الكاف",
        "mun": "الكاف",
        "city": "الكاف"
    },
    {
        "city_en": "Monastir",
        "latlon": "35.766992, 10.822685",
        "type": "c",
        "title": "مغازة عزيزة",
        "mun": "المنستير",
        "city": "المنستير"
    },
    {
        "city_en": "Monastir",
        "latlon": "35.773899, 10.829737",
        "type": "c",
        "title": "مكتب المغازة العامة",
        "mun": "المنستير",
        "city": "المنستير"
    },
    {
        "city_en": "Monastir",
        "latlon": "35.773392, 10.818843",
        "type": "p",
        "title": "مكتب بريد برج خفشة",
        "mun": "المنستير",
        "city": "المنستير"
    },
    {
        "city_en": "Monastir",
        "latlon": "35.644935, 10.886815",
        "type": "c",
        "title": "مكتب كارفور ماركت",
        "mun": "قصرهلال",
        "city": "المنستير"
    },
    {
        "city_en": "Monastir",
        "latlon": "35.773209, 10.825642",
        "type": "t",
        "title": "مكتب محطة نقل المسافرين",
        "mun": "المنستير",
        "city": "المنستير"
    },
    {
        "city_en": "Monastir",
        "latlon": "35.627204, 10.907668",
        "type": "c",
        "title": "مونوبري",
        "mun": "املكنين",
        "city": "المنستير"
    },
    {
        "city_en": "Monastir",
        "latlon": "35.772451, 10.830806",
        "type": "c",
        "title": "مونوبري",
        "mun": "المنستير",
        "city": "المنستير"
    },
    {
        "city_en": "Mahdia",
        "latlon": "35.505052, 11.064827",
        "type": "c",
        "title": "المغازة العامة",
        "mun": "المهدية",
        "city": "المهدية"
    },
    {
        "city_en": "Mahdia",
        "latlon": "35.348214, 10.991075",
        "type": "sm",
        "title": "دائرة بلدية هيبون",
        "mun": "المهدية",
        "city": "المهدية"
    },
    {
        "city_en": "Mahdia",
        "latlon": "35.507042, 11.052337",
        "type": "c",
        "title": "كارفور",
        "mun": "المهدية",
        "city": "المهدية"
    },
    {
        "city_en": "Mahdia",
        "latlon": "35.500042, 11.048164",
        "type": "t",
        "title": "محطة امليترو",
        "mun": "المهدية",
        "city": "المهدية"
    },
    {
        "city_en": "Mahdia",
        "latlon": "35.695689, 10.793349",
        "type": "p",
        "title": "مكتب بريد الجم",
        "mun": "الجم",
        "city": "المهدية"
    },
    {
        "city_en": "Mahdia",
        "latlon": "35.236071, 11.115871",
        "type": "p",
        "title": "مكتب بريد الشابة",
        "mun": "الشابة",
        "city": "المهدية"
    },
    {
        "city_en": "Mahdia",
        "latlon": "35.418701, 10.996868",
        "type": "p",
        "title": "مكتب بريد قصور الساف",
        "mun": "قصور الساف",
        "city": "المهدية"
    },
    {
        "city_en": "Ariana",
        "latlon": "36.879160, 10.180170",
        "type": "c",
        "title": "الفضاء التجاري كارفور مركت  الغزالة",
        "mun": "رواد",
        "city": "أريانة"
    },
    {
        "city_en": "Ariana",
        "latlon": "36.884669, 10.183948",
        "type": "c",
        "title": "الفضاء التجاري كارفور مركت  رواد",
        "mun": "رواد",
        "city": "أريانة"
    },
    {
        "city_en": "Ariana",
        "latlon": "36.857060, 10.127479",
        "type": "c",
        "title": "الفضاء التجاري ماركور المنيهلة",
        "mun": "المنيهلة",
        "city": "أريانة"
    },
    {
        "city_en": "Ariana",
        "latlon": "36.857562, 10.189814",
        "type": "c",
        "title": "الفضاء التجاري مونوبري أريانة سنتر",
        "mun": "أريانة",
        "city": "أريانة"
    },
    {
        "city_en": "Ariana",
        "latlon": "36.856488, 10.127699",
        "type": "s",
        "title": "المستوصف",
        "mun": "المنيهلة",
        "city": "أريانة"
    },
    {
        "city_en": "Ariana",
        "latlon": "36.852821, 10.164514",
        "type": "c",
        "title": "المغازة العامة ماقرو",
        "mun": "أريانة",
        "city": "أريانة"
    },
    {
        "city_en": "Ariana",
        "latlon": "36.860741, 10.163770",
        "type": "sm",
        "title": "دائرة الغزالة",
        "mun": "رواد",
        "city": "أريانة"
    },
    {
        "city_en": "Ariana",
        "latlon": "36.860698, 10.163813",
        "type": "sm",
        "title": "دائرة المنازه",
        "mun": "أريانة",
        "city": "أريانة"
    },
    {
        "city_en": "Ariana",
        "latlon": "36.860937, 10.163746",
        "type": "sm",
        "title": "دائرة رياض النصر",
        "mun": "أريانة",
        "city": "أريانة"
    },
    {
        "city_en": "Ariana",
        "latlon": "34.764331, 10.756537",
        "type": "sm",
        "title": "دائرة سكرة",
        "mun": "سكرة",
        "city": "أريانة"
    },
    {
        "city_en": "Ariana",
        "latlon": "36.939932, 10.177926",
        "type": "sm",
        "title": "دائرة سيدي عمر",
        "mun": "رواد",
        "city": "أريانة"
    },
    {
        "city_en": "Ariana",
        "latlon": "36.864772, 10.200572",
        "type": "s",
        "title": "فضاء اتصالات تونس برج الوزير",
        "mun": "سكرة",
        "city": "أريانة"
    },
    {
        "city_en": "Ariana",
        "latlon": "36.901123, 10.125515",
        "type": "c",
        "title": "فضاء تونس سيتي جيان",
        "mun": "رواد",
        "city": "أريانة"
    },
    {
        "city_en": "Ariana",
        "latlon": "36.863884, 10.166695",
        "type": "c",
        "title": "كارفور ماركت النصر2",
        "mun": "أريانة",
        "city": "أريانة"
    },
    {
        "city_en": "Ariana",
        "latlon": "36.873433, 10.115679",
        "type": "s",
        "title": "مقر جمعية إندا للقروض الصغرى",
        "mun": "التضامن",
        "city": "أريانة"
    },
    {
        "city_en": "Ariana",
        "latlon": "36.873522, 10.170359",
        "type": "s",
        "title": "مقر جمعية إندا للقروض الصغرى",
        "mun": "أريانة",
        "city": "أريانة"
    },
    {
        "city_en": "Ariana",
        "latlon": "36.857080, 10.127620",
        "type": "s",
        "title": "مقر صندوق التأمين على المرض",
        "mun": "المنيهلة",
        "city": "أريانة"
    },
    {
        "city_en": "Ariana",
        "latlon": "36.862735, 10.185828",
        "type": "s",
        "title": "مقر صندوق التأمين على المرض  بأريانة",
        "mun": "أريانة",
        "city": "أريانة"
    },
    {
        "city_en": "Ariana",
        "latlon": "36.862735, 10.185828",
        "type": "c",
        "title": "مونوبري المنزه 6",
        "mun": "أريانة",
        "city": "أريانة"
    },
    {
        "city_en": "Ariana",
        "latlon": "36.862735, 10.185828",
        "type": "c",
        "title": "مونوبري النصر",
        "mun": "أريانة",
        "city": "أريانة"
    },
    {
        "city_en": "Ariana",
        "latlon": "36.855838, 10.256795",
        "type": "c",
        "title": "مونوبري سكرة",
        "mun": "سكرة",
        "city": "أريانة"
    },
    {
        "city_en": "Beja",
        "latlon": "36.724727, 9.185657",
        "type": "c",
        "title": "المغازة العامة",
        "mun": "باجة",
        "city": "باجة"
    },
    {
        "city_en": "Beja",
        "latlon": "36.975858, 9.078762",
        "type": "c",
        "title": "المغازة العامة",
        "mun": "نفزة",
        "city": "باجة"
    },
    {
        "city_en": "Beja",
        "latlon": "36.726158, 9.187228",
        "type": "c",
        "title": "كارفور",
        "mun": "باجة",
        "city": "باجة"
    },
    {
        "city_en": "Beja",
        "latlon": "36.650969, 9.613786",
        "type": "p",
        "title": "مكتب بريد",
        "mun": "مجازالباب",
        "city": "باجة"
    },
    {
        "city_en": "Beja",
        "latlon": "36.650969, 9.613786",
        "type": "p",
        "title": "مكتب بريد",
        "mun": "مجازالباب",
        "city": "باجة"
    },
    {
        "city_en": "Beja",
        "latlon": "36.723261, 9.184379",
        "type": "p",
        "title": "مكتب بريد",
        "mun": "باجة",
        "city": "باجة"
    },
    {
        "city_en": "Beja",
        "latlon": "36.97768,9.08157",
        "type": "c",
        "title": "مونوبري",
        "mun": "نفزة",
        "city": "باجة"
    },
    {
        "city_en": "BenArous",
        "latlon": "36.734035, 10.209423",
        "type": "sm",
        "title": "البلدية السريعة المروج 4",
        "mun": "المروج",
        "city": "بن عروس"
    },
    {
        "city_en": "BenArous",
        "latlon": "36.678125, 10.150741",
        "type": "sm",
        "title": "الحالة المدنية",
        "mun": "املحمدية",
        "city": "بن عروس"
    },
    {
        "city_en": "BenArous",
        "latlon": "36.73984,10.23436",
        "type": "sm",
        "title": "الدائرة البلدية بسيدي مصباح",
        "mun": "بن عروس",
        "city": "بن عروس"
    },
    {
        "city_en": "BenArous",
        "latlon": "36.747408, 10.310267",
        "type": "c",
        "title": "المغازة العامة الزهراء",
        "mun": "الزهراء",
        "city": "بن عروس"
    },
    {
        "city_en": "BenArous",
        "latlon": "36.756008, 10.221035",
        "type": "c",
        "title": "المغازة العامة المروج 4",
        "mun": "المروج",
        "city": "بن عروس"
    },
    {
        "city_en": "BenArous",
        "latlon": "36.706838, 10.409012",
        "type": "c",
        "title": "المغازة العامة ببرج سدرية",
        "mun": "حمام الشط",
        "city": "بن عروس"
    },
    {
        "city_en": "BenArous",
        "latlon": "36.767634, 10.269961",
        "type": "c",
        "title": "المغازة العامة رادس",
        "mun": "رادس",
        "city": "بن عروس"
    },
    {
        "city_en": "BenArous",
        "latlon": "36.750479, 10.252073",
        "type": "sm",
        "title": "دائرة المدينة الجديدة",
        "mun": "بن عروس",
        "city": "بن عروس"
    },
    {
        "city_en": "BenArous",
        "latlon": "36.684884, 10.159044",
        "type": "c",
        "title": "كارفور أكسبريس",
        "mun": "فوشانة",
        "city": "بن عروس"
    },
    {
        "city_en": "BenArous",
        "latlon": "36.839734, 10.144749",
        "type": "c",
        "title": "كارفور أكسبريس",
        "mun": "المحمدية",
        "city": "بن عروس"
    },
    {
        "city_en": "BenArous",
        "latlon": "36.734370, 10.209295",
        "type": "c",
        "title": "كارفور ماركت المروج 1",
        "mun": "المروج",
        "city": "بن عروس"
    },
    {
        "city_en": "BenArous",
        "latlon": "36.733239, 10.312399",
        "type": "c",
        "title": "كارفور ماركت بومهل",
        "mun": "بومهل",
        "city": "بن عروس"
    },
    {
        "city_en": "BenArous",
        "latlon": "36.775658, 10.215413",
        "type": "c",
        "title": "كارفور ماركت مقر ين",
        "mun": "مقر ين",
        "city": "بن عروس"
    },
    {
        "city_en": "Bizerte",
        "latlon": "37.269767, 9.866887",
        "type": "c",
        "title": "المغازة العامة",
        "mun": "بنزرت",
        "city": "بنزرت"
    },
    {
        "city_en": "Bizerte",
        "latlon": "36.965092, 9.301622",
        "type": "sm",
        "title": "دائرة بازينة",
        "mun": "جومين",
        "city": "بنزرت"
    },
    {
        "city_en": "Bizerte",
        "latlon": "37.149993, 9.783269",
        "type": "sm",
        "title": "دائرة حشاد",
        "mun": "بنزرت",
        "city": "بنزرت"
    },
    {
        "city_en": "Bizerte",
        "latlon": "37.154587, 9.792948",
        "type": "sm",
        "title": "دائرة حي الثورة",
        "mun": "منزل بورقيبة",
        "city": "بنزرت"
    },
    {
        "city_en": "Bizerte",
        "latlon": "37.043238, 9.662098",
        "type": "sm",
        "title": "دائرة حي العمران",
        "mun": "ماطر",
        "city": "بنزرت"
    },
    {
        "city_en": "Bizerte",
        "latlon": "37.281214, 9.856372",
        "type": "c",
        "title": "كارفور جرزونة",
        "mun": "بنزرت",
        "city": "بنزرت"
    },
    {
        "city_en": "Bizerte",
        "latlon": "37.215183, 10.124930",
        "type": "c",
        "title": "كارفور راس الجبل",
        "mun": "رأس الجبل",
        "city": "بنزرت"
    },
    {
        "city_en": "Bizerte",
        "latlon": "37.295816, 9.872543",
        "type": "c",
        "title": "كارفور عين مريم",
        "mun": "بنزرت",
        "city": "بنزرت"
    },
    {
        "city_en": "Bizerte",
        "latlon": "37.154565, 9.791947",
        "type": "c",
        "title": "كارفور منزل بورقيبة",
        "mun": "منزل بورقيبة",
        "city": "بنزرت"
    },
    {
        "city_en": "Bizerte",
        "latlon": "37.265110, 9.888021",
        "type": "t",
        "title": "محطة النقل البري",
        "mun": "بنزرت",
        "city": "بنزرت"
    },
    {
        "city_en": "Bizerte",
        "latlon": "37.272786, 9.871494",
        "type": "c",
        "title": "مونوبري بنزرت",
        "mun": "بنزرت",
        "city": "بنزرت"
    },
    {
        "city_en": "Bizerte",
        "latlon": "37.261874, 9.890173",
        "type": "c",
        "title": "مونوبري جرزونة",
        "mun": "بنزرت",
        "city": "بنزرت"
    },
    {
        "city_en": "Bizerte",
        "latlon": "37.154692, 9.794079",
        "type": "c",
        "title": "مونوبري منزل بورقيبة",
        "mun": "منزل بورقيبة",
        "city": "بنزرت"
    },
    {
        "city_en": "Tataouine",
        "latlon": "32.912906, 10.452632",
        "type": "sm",
        "title": "املكتب بمعتمدية تطاوين الجنوبية",
        "mun": "تطاوين",
        "city": "تطاوين"
    },
    {
        "city_en": "Tataouine",
        "latlon": "32.992324, 10.461035",
        "type": "p",
        "title": "مكتب البريد الرقبة",
        "mun": "تطاوين",
        "city": "تطاوين"
    },
    {
        "city_en": "Tataouine",
        "latlon": "32.993970, 10.460873",
        "type": "p",
        "title": "مكتب البريد المدينة",
        "mun": "تطاوين",
        "city": "تطاوين"
    },
    {
        "city_en": "Tataouine",
        "latlon": "36.862432, 10.195303",
        "type": "s",
        "title": "مكتب التشغيل والعمل املستقل",
        "mun": "تطاوين",
        "city": "تطاوين"
    },
    {
        "city_en": "Tozeur",
        "latlon": "33.921026, 8.124360",
        "type": "c",
        "title": "المغازة العامة",
        "mun": "توزر",
        "city": "توزر"
    },
    {
        "city_en": "Tozeur",
        "latlon": "33.995782, 8.233116",
        "type": "s",
        "title": "دار الشباب دقاش",
        "mun": "دقاش",
        "city": "توزر"
    },
    {
        "city_en": "Tozeur",
        "latlon": "33.921885, 8.129155",
        "type": "c",
        "title": "كارفور",
        "mun": "توزر",
        "city": "توزر"
    },
    {
        "city_en": "Tozeur",
        "latlon": "33.920559, 8.136793",
        "type": "p",
        "title": "مكتب بريد توزر",
        "mun": "توزر",
        "city": "توزر"
    },
    {
        "city_en": "Tunis",
        "latlon": "36.813022, 10.175571",
        "type": "s",
        "title": "CNAM  سيدي حسين",
        "mun": "سيدي حسين",
        "city": "تونس 1"
    },
    {
        "city_en": "Tunis",
        "latlon": "36.821955, 10.194346",
        "type": "s",
        "title": "CNAM  مونبليزير",
        "mun": "تونس",
        "city": "تونس 1"
    },
    {
        "city_en": "Tunis",
        "latlon": "36.807262, 10.178753",
        "type": "s",
        "title": "CNSS شارع مدريد",
        "mun": "تونس",
        "city": "تونس 1"
    },
    {
        "city_en": "Tunis",
        "latlon": "36.797109, 10.181993",
        "type": "p",
        "title": "PTT شارع قرطاج",
        "mun": "تونس",
        "city": "تونس 1"
    },
    {
        "city_en": "Tunis",
        "latlon": "36.800476, 10.186652",
        "type": "sm",
        "title": "الخيمة بشارع الحبيب بورقيبة",
        "mun": "تونس",
        "city": "تونس 1"
    },
    {
        "city_en": "Tunis",
        "latlon": "36.800026, 10.166002",
        "type": "s",
        "title": "المحكمة االبتدائية تونس 2",
        "mun": "سيدي حسين",
        "city": "تونس 1"
    },
    {
        "city_en": "Tunis",
        "latlon": "36.829607, 10.134300",
        "type": "c",
        "title": "المغازة العامة ابن خلدون",
        "mun": "تونس",
        "city": "تونس 1"
    },
    {
        "city_en": "Tunis",
        "latlon": "36.838203, 10.194580",
        "type": "c",
        "title": "المغازة العامة املنزه 1",
        "mun": "تونس",
        "city": "تونس 1"
    },
    {
        "city_en": "Tunis",
        "latlon": "36.793740, 10.128375",
        "type": "c",
        "title": "المغازة العامة حي الزهور",
        "mun": "تونس",
        "city": "تونس 1"
    },
    {
        "city_en": "Tunis",
        "latlon": "36.798721, 10.175478",
        "type": "c",
        "title": "المغازة العامة ساحة فرنسا",
        "mun": "تونس",
        "city": "تونس 1"
    },
    {
        "city_en": "Tunis",
        "latlon": "36.838426, 10.194704",
        "type": "c",
        "title": "المغازة العامة سيدي حسين",
        "mun": "سيدي حسين",
        "city": "تونس 1"
    },
    {
        "city_en": "Tunis",
        "latlon": "36.798778, 10.135237",
        "type": "sm",
        "title": "دائرة الحرارية",
        "mun": "تونس",
        "city": "تونس 1"
    },
    {
        "city_en": "Tunis",
        "latlon": "32.9374,3.2842",
        "type": "sm",
        "title": "دائرة الزهور",
        "mun": "تونس",
        "city": "تونس 1"
    },
    {
        "city_en": "Tunis",
        "latlon": "36.788054, 10.164136",
        "type": "sm",
        "title": "دائرة السيجومي",
        "mun": "تونس",
        "city": "تونس 1"
    },
    {
        "city_en": "Tunis",
        "latlon": "36.822299, 10.166859",
        "type": "sm",
        "title": "دائرة العمران",
        "mun": "تونس",
        "city": "تونس 1"
    },
    {
        "city_en": "Tunis",
        "latlon": "36.759314, 10.191117",
        "type": "sm",
        "title": "دائرة الكبارية",
        "mun": "تونس",
        "city": "تونس 1"
    },
    {
        "city_en": "Tunis",
        "latlon": "36.781249, 10.194419",
        "type": "sm",
        "title": "دائرة الوردية",
        "mun": "تونس",
        "city": "تونس 1"
    },
    {
        "city_en": "Tunis",
        "latlon": "36.83417, 10.16736",
        "type": "sm",
        "title": "دائرة املنزه",
        "mun": "تونس",
        "city": "تونس 1"
    },
    {
        "city_en": "Tunis",
        "latlon": "36.806932, 10.188380",
        "type": "sm",
        "title": "دائرة باب بحر",
        "mun": "تونس",
        "city": "تونس 1"
    },
    {
        "city_en": "Tunis",
        "latlon": "36.807383, 10.174229",
        "type": "sm",
        "title": "دائرة باب سويقة",
        "mun": "تونس",
        "city": "تونس 1"
    },
    {
        "city_en": "Tunis",
        "latlon": "36.825103, 10.127041",
        "type": "sm",
        "title": "دائرة حي التحرير",
        "mun": "تونس",
        "city": "تونس 1"
    },
    {
        "city_en": "Tunis",
        "latlon": "36.830972, 10.187629",
        "type": "sm",
        "title": "دائرة حي الخضراء",
        "mun": "تونس",
        "city": "تونس 1"
    },
    {
        "city_en": "Tunis",
        "latlon": "36.820701, 10.157008",
        "type": "sm",
        "title": "دائرة سيدي البشير",
        "mun": "تونس",
        "city": "تونس 1"
    },
    {
        "city_en": "Tunis",
        "latlon": "36.798768, 10.181185",
        "type": "c",
        "title": "فضاء الباملاريوم",
        "mun": "تونس",
        "city": "تونس 1"
    },
    {
        "city_en": "Tunis",
        "latlon": "36.801353, 10.183022",
        "type": "c",
        "title": "فضاء سنترال بارك",
        "mun": "تونس",
        "city": "تونس 1"
    },
    {
        "city_en": "Tunis",
        "latlon": "36.805858, 10.178741",
        "type": "c",
        "title": "كارفور ماركت االنطالقة",
        "mun": "تونس",
        "city": "تونس 1"
    },
    {
        "city_en": "Tunis",
        "latlon": "36.806088, 10.179756",
        "type": "c",
        "title": "كارفور ماركت الباساج",
        "mun": "تونس",
        "city": "تونس 1"
    },
    {
        "city_en": "Tunis",
        "latlon": "36.812514, 10.180911",
        "type": "c",
        "title": "كارفور ماركت الفايات",
        "mun": "تونس",
        "city": "تونس 1"
    },
    {
        "city_en": "Tunis",
        "latlon": "36.812218, 10.180793",
        "type": "c",
        "title": "كارفور ماركت املنزه 9",
        "mun": "تونس",
        "city": "تونس 1"
    },
    {
        "city_en": "Tunis",
        "latlon": "36.794945, 10.180460",
        "type": "t",
        "title": "محطة األرتال تونس",
        "mun": "تونس",
        "city": "تونس 1"
    },
    {
        "city_en": "Tunis",
        "latlon": "36.785836, 10.179757",
        "type": "t",
        "title": "محطة نقل المسافرين\r\nمسافرين  باب عليوة",
        "mun": "تونس",
        "city": "تونس 1"
    },
    {
        "city_en": "Tunis",
        "latlon": "36.809163, 10.103856",
        "type": "s",
        "title": "مصحة الضمان االجتماعي",
        "mun": "تونس",
        "city": "تونس 1"
    },
    {
        "city_en": "Tunis",
        "latlon": "36.832266, 10.192405",
        "type": "s",
        "title": "مصحة الضمان االجتماعي بحي الخضراء",
        "mun": "تونس",
        "city": "تونس 1"
    },
    {
        "city_en": "Tunis",
        "latlon": "36.847240, 10.217755",
        "type": "t",
        "title": "مطارتونس",
        "mun": "تونس",
        "city": "تونس 1"
    },
    {
        "city_en": "Tunis",
        "latlon": "35.829720, 10.632719",
        "type": "s",
        "title": "مكاتب الريد+القباضة املالية",
        "mun": "سيدي حسين",
        "city": "تونس 1"
    },
    {
        "city_en": "Tunis",
        "latlon": "36.794243, 10.173998",
        "type": "p",
        "title": "مكتب البريد بباب منارة",
        "mun": "تونس",
        "city": "تونس 1"
    },
    {
        "city_en": "Tunis",
        "latlon": "36.798906, 10.187731",
        "type": "p",
        "title": "مكتب البريد عمراملختاربسيدي حسين",
        "mun": "سيدي حسين",
        "city": "تونس 1"
    },
    {
        "city_en": "Tunis",
        "latlon": "36.838399, 10.238131",
        "type": "c",
        "title": "مونوبري البحيرة",
        "mun": "تونس",
        "city": "تونس 1"
    },
    {
        "city_en": "Tunis",
        "latlon": "36.813020, 10.179182",
        "type": "c",
        "title": "مونوبري الفيات",
        "mun": "تونس",
        "city": "تونس 1"
    },
    {
        "city_en": "Tunis",
        "latlon": "36.813157, 10.179117",
        "type": "c",
        "title": "مونوبري باب سويقة",
        "mun": "تونس",
        "city": "تونس 1"
    },
    {
        "city_en": "Tunis",
        "latlon": "36.817378, 10.302853",
        "type": "sm",
        "title": "الدائرة البلدية",
        "mun": "حلق الوادي",
        "city": "تونس2"
    },
    {
        "city_en": "Tunis",
        "latlon": "36.805612, 10.132706",
        "type": "sm",
        "title": "الدائرة البلدية الحدائق",
        "mun": "باردو",
        "city": "تونس2"
    },
    {
        "city_en": "Tunis",
        "latlon": "36.850447, 10.261263",
        "type": "sm",
        "title": "الدائرة البلدية العوينة",
        "mun": "حلق الوادي",
        "city": "تونس2"
    },
    {
        "city_en": "Tunis",
        "latlon": "36.832276, 10.311495",
        "type": "sm",
        "title": "الدائرة البلدية الكرم الشرقي",
        "mun": "الكرم",
        "city": "تونس2"
    },
    {
        "city_en": "Tunis",
        "latlon": "36.831941, 10.311549",
        "type": "sm",
        "title": "الدائرة البلدية الكرم الغربي",
        "mun": "الكرم",
        "city": "تونس2"
    },
    {
        "city_en": "Tunis",
        "latlon": "36.883894, 10.327078",
        "type": "sm",
        "title": "الدائرة البلدية املرس   ى المدينة",
        "mun": "املرس   ى",
        "city": "تونس2"
    },
    {
        "city_en": "Tunis",
        "latlon": "36.812335, 10.134299",
        "type": "sm",
        "title": "الدائرة البلدية باردو",
        "mun": "باردو",
        "city": "تونس2"
    },
    {
        "city_en": "Tunis",
        "latlon": "36.827954, 10.188156",
        "type": "sm",
        "title": "الدائرة البلدية حي الرياض",
        "mun": "املرس   ى",
        "city": "تونس2"
    },
    {
        "city_en": "Tunis",
        "latlon": "36.867501, 10.294704",
        "type": "sm",
        "title": "الدائرة البلدية سيدي داود",
        "mun": "املرس   ى",
        "city": "تونس2"
    },
    {
        "city_en": "Tunis",
        "latlon": "36.914824, 10.285503",
        "type": "sm",
        "title": "الدائرة البلدية قمرت",
        "mun": "املرس   ى",
        "city": "تونس2"
    },
    {
        "city_en": "Tunis",
        "latlon": "36.852920, 10.331792",
        "type": "sm",
        "title": "الدائرة قرطاج محمدعلي",
        "mun": "قرطاج",
        "city": "تونس2"
    },
    {
        "city_en": "Tunis",
        "latlon": "36.811252, 10.137234",
        "type": "s",
        "title": "الصندوق الوطني للتقاعد و الحيطة االجتماعية",
        "mun": "باردو",
        "city": "تونس2"
    },
    {
        "city_en": "Tunis",
        "latlon": "36.847960, 10.278887",
        "type": "c",
        "title": "تونيزيا مول",
        "mun": "حلق الوادي",
        "city": "تونس2"
    },
    {
        "city_en": "Tunis",
        "latlon": "36.859170, 10.283571",
        "type": "sm",
        "title": "دائرة عين زعوان",
        "mun": "الكرم",
        "city": "تونس2"
    },
    {
        "city_en": "Tunis",
        "latlon": "36.820373, 10.119299",
        "type": "sm",
        "title": "دائرة قصرالسعيد",
        "mun": "باردو",
        "city": "تونس2"
    },
    {
        "city_en": "Tunis",
        "latlon": "36.809112, 10.129079",
        "type": "c",
        "title": "كارفور املرس   ى",
        "mun": "املرس   ى",
        "city": "تونس2"
    },
    {
        "city_en": "Tunis",
        "latlon": "36.855838, 10.256741",
        "type": "c",
        "title": "مونوبري العوينة",
        "mun": "الكرم",
        "city": "تونس2"
    },
    {
        "city_en": "Tunis",
        "latlon": "36.809417, 10.138310",
        "type": "c",
        "title": "مونوبري باردو الحنايا",
        "mun": "باردو",
        "city": "تونس2"
    },
    {
        "city_en": "Tunis",
        "latlon": "36.883672, 10.329667",
        "type": "c",
        "title": "مونوبري قرطاج",
        "mun": "قرطاج",
        "city": "تونس2"
    },
    {
        "city_en": "Jendouba",
        "latlon": "36.499042, 8.778570",
        "type": "c",
        "title": "المغازة العامة",
        "mun": "جندوبة",
        "city": "جندوبة"
    },
    {
        "city_en": "Jendouba",
        "latlon": "36.955247, 8.757864",
        "type": "c",
        "title": "المغازة العامة",
        "mun": "طبرقة",
        "city": "جندوبة"
    },
    {
        "city_en": "Jendouba",
        "latlon": "36.805213, 10.181333",
        "type": "s",
        "title": "سيكوم",
        "mun": "جندوبة",
        "city": "جندوبة"
    },
    {
        "city_en": "Jendouba",
        "latlon": "36.609643, 8.972321",
        "type": "c",
        "title": "كارفور اكسبرس",
        "mun": "بوسالم",
        "city": "جندوبة"
    },
    {
        "city_en": "Jendouba",
        "latlon": "36.504664, 8.789428",
        "type": "s",
        "title": "مكتب معهد سو ق السبت",
        "mun": "سوق السبت",
        "city": "جندوبة"
    },
    {
        "city_en": "Jendouba",
        "latlon": "36.501093, 8.778520",
        "type": "c",
        "title": "مونوبري",
        "mun": "جندوبة",
        "city": "جندوبة"
    },
    {
        "city_en": "Jendouba",
        "latlon": "36.954560, 8.760206",
        "type": "c",
        "title": "مونوبري",
        "mun": "طبرقة",
        "city": "جندوبة"
    },
    {
        "city_en": "Zaghouan",
        "latlon": "36.399240, 10.144558",
        "type": "c",
        "title": "المغازة العامة",
        "mun": "زغوان",
        "city": "زغوان"
    },
    {
        "city_en": "Zaghouan",
        "latlon": "36.408201, 10.145554",
        "type": "p",
        "title": "مكتب بريد الفحص",
        "mun": "الفحص",
        "city": "زغوان"
    },
    {
        "city_en": "Zaghouan",
        "latlon": "36.118346, 10.092240",
        "type": "p",
        "title": "مكتب بريد الناظور",
        "mun": "الناظور",
        "city": "زغوان"
    },
    {
        "city_en": "Zaghouan",
        "latlon": "36.519802, 9.953248",
        "type": "p",
        "title": "مكتب بريد بئرمشارقة",
        "mun": "بئرمشارقة",
        "city": "زغوان"
    },
    {
        "city_en": "Zaghouan",
        "latlon": "36.401085, 10.143862",
        "type": "p",
        "title": "مكتب بريد زغوان",
        "mun": "زغوان",
        "city": "زغوان"
    },
    {
        "city_en": "Siliana",
        "latlon": "36.405828, 10.141209",
        "type": "c",
        "title": "مكتب الكارفور",
        "mun": "سليانة",
        "city": "سليانة"
    },
    {
        "city_en": "Siliana",
        "latlon": "36.086857, 9.371318",
        "type": "c",
        "title": "مكتب المغازة العامة",
        "mun": "سليانة",
        "city": "سليانة"
    },
    {
        "city_en": "Siliana",
        "latlon": "35.540818, 9.348652",
        "type": "p",
        "title": "مكتب بريد الحبابسة",
        "mun": "الحبابسة",
        "city": "سليانة"
    },
    {
        "city_en": "Siliana",
        "latlon": "35.853554, 9.285413",
        "type": "p",
        "title": "مكتب بريد المنصورة",
        "mun": "كسرى",
        "city": "سليانة"
    },
    {
        "city_en": "Siliana",
        "latlon": "36.318480, 9.321854",
        "type": "p",
        "title": "مكتب بريد برج المسعودي",
        "mun": "الكريب",
        "city": "سليانة"
    },
    {
        "city_en": "Siliana",
        "latlon": "36.831173, 10.179284",
        "type": "p",
        "title": "مكتب بريد مكثر",
        "mun": "مكثر",
        "city": "سليانة"
    },
    {
        "city_en": "Siliana",
        "latlon": "36.094347, 9.369999",
        "type": "t",
        "title": "مكتب محطة النقل بسليانة",
        "mun": "سليانة",
        "city": "سليانة"
    },
    {
        "city_en": "Sousse",
        "latlon": "35.835162, 10.592064",
        "type": "c",
        "title": "المغازة العامة سهلول",
        "mun": "حمام سوسة",
        "city": "سوسة"
    },
    {
        "city_en": "Sousse",
        "latlon": "35.853370, 10.604013",
        "type": "c",
        "title": "كارفور خزامة",
        "mun": "سوسة",
        "city": "سوسة"
    },
    {
        "city_en": "Sousse",
        "latlon": "35.845822, 10.611523",
        "type": "c",
        "title": "كارفور سوق األحد",
        "mun": "سوسة",
        "city": "سوسة"
    },
    {
        "city_en": "Sousse",
        "latlon": "35.856527, 10.596567",
        "type": "sm",
        "title": "مكتب  البلدية حمام سوسة",
        "mun": "حمام سوسة",
        "city": "سوسة"
    },
    {
        "city_en": "Sousse",
        "latlon": "35.829720, 10.632719",
        "type": "sm",
        "title": "مكتب الدائرة البلدية الغرابي",
        "mun": "حمام سوسة",
        "city": "سوسة"
    },
    {
        "city_en": "Sousse",
        "latlon": "35.902473, 10.573643",
        "type": "sm",
        "title": "مكتب الدائرة البلدية القنطاوي",
        "mun": "حمام سوسة",
        "city": "سوسة"
    },
    {
        "city_en": "SidiBouzid",
        "latlon": "35.036519, 9.481963",
        "type": "c",
        "title": "المغازة العامة",
        "mun": "سيدي بوزيد",
        "city": "سيدي بوزيد"
    },
    {
        "city_en": "SidiBouzid",
        "latlon": "34.940882, 9.563206",
        "type": "p",
        "title": "بريد سيدي  بوزيد",
        "mun": "سيدي بوزيد",
        "city": "سيدي بوزيد"
    },
    {
        "city_en": "Sfax",
        "latlon": "34.768710, 10.753178",
        "type": "c",
        "title": "الفضاء التجاري املصمودي",
        "mun": "شيحية",
        "city": "صفاقس 1"
    },
    {
        "city_en": "Sfax",
        "latlon": "34.761595, 10.728972",
        "type": "c",
        "title": "الفضاء التجاري زادنا",
        "mun": "ساقية الداير",
        "city": "صفاقس 1"
    },
    {
        "city_en": "Sfax",
        "latlon": "34.793878, 10.742274",
        "type": "c",
        "title": "الفضاء التجاري كارفور الشيحية",
        "mun": "شيحية",
        "city": "صفاقس 1"
    },
    {
        "city_en": "Sfax",
        "latlon": "34.788903, 10.780618",
        "type": "c",
        "title": "الفضاء التجاري مونوبري",
        "mun": "ساقية الداير",
        "city": "صفاقس 1"
    },
    {
        "city_en": "Sfax",
        "latlon": "34.838021, 10.754620",
        "type": "s",
        "title": "المركب الجامعي حي الأنس",
        "mun": "ساقية الزيت",
        "city": "صفاقس 1"
    },
    {
        "city_en": "Sfax",
        "latlon": "34.823087, 10.751979",
        "type": "s",
        "title": "صندوق التامين على المرض",
        "mun": "ساقية الزيت",
        "city": "صفاقس 1"
    },
    {
        "city_en": "Sfax",
        "latlon": "34.655410, 10.970343",
        "type": "t",
        "title": "محطة الباخرة سيدي يوسف",
        "mun": "قرقنة",
        "city": "صفاقس 1"
    },
    {
        "city_en": "Sfax",
        "latlon": "34.767439, 10.758941",
        "type": "sm",
        "title": "الدائرة الشمالية",
        "mun": "صفاقس",
        "city": "صفاقس 2"
    },
    {
        "city_en": "Sfax",
        "latlon": "34.762806, 10.728916",
        "type": "c",
        "title": "الفضاء التجاري المغازة العامة طريق منزل شاكر",
        "mun": "صفاقس",
        "city": "صفاقس 2"
    },
    {
        "city_en": "Sfax",
        "latlon": "34.753292, 10.771961",
        "type": "sm",
        "title": "دائرة البستان",
        "mun": "صفاقس",
        "city": "صفاقس 2"
    },
    {
        "city_en": "Sfax",
        "latlon": "34.738035, 10.745660",
        "type": "sm",
        "title": "دائرة الربض",
        "mun": "صفاقس",
        "city": "صفاقس 2"
    },
    {
        "city_en": "Sfax",
        "latlon": "34.766240, 10.759499",
        "type": "sm",
        "title": "دائرة المدينة",
        "mun": "صفاقس",
        "city": "صفاقس 2"
    },
    {
        "city_en": "Sfax",
        "latlon": "34.720757, 10.720744",
        "type": "sm",
        "title": "دائرة حي الحبيب",
        "mun": "صفاقس",
        "city": "صفاقس 2"
    },
    {
        "city_en": "Sfax",
        "latlon": "34.769490, 10.788435",
        "type": "sm",
        "title": "دائرة سيدي منصور",
        "mun": "صفاقس",
        "city": "صفاقس 2"
    },
    {
        "city_en": "Sfax",
        "latlon": "34.749650, 10.718687",
        "type": "sm",
        "title": "دائرة مركزشاكر",
        "mun": "صفاقس",
        "city": "صفاقس 2"
    },
    {
        "city_en": "Sfax",
        "latlon": "34.762972, 10.729037",
        "type": "c",
        "title": "كارفور محسونة",
        "mun": "العين",
        "city": "صفاقس 2"
    },
    {
        "city_en": "Sfax",
        "latlon": "34.741064, 10.760773",
        "type": "c",
        "title": "مكتب بالفضاء التجاري مونوبري باب بحر",
        "mun": "صفاقس",
        "city": "صفاقس 2"
    },
    {
        "city_en": "Sfax",
        "latlon": "34.740092, 10.754796",
        "type": "p",
        "title": "مكتب بريد صفاقس",
        "mun": "صفاقس",
        "city": "صفاقس 2"
    },
    {
        "city_en": "Sfax",
        "latlon": "34.730625, 10.757427",
        "type": "s",
        "title": "مكتب كنام صفاقس",
        "mun": "صفاقس",
        "city": "صفاقس 2"
    },
    {
        "city_en": "Gabes",
        "latlon": "33.866718, 10.086951",
        "type": "sm",
        "title": "الدائرة البلدية سيدي بلبابة",
        "mun": "قابس",
        "city": "قابس"
    },{
        "city_en": "Gabes",
        "latlon": "33.9235,10.0802",
        "type": "sm",
        "title": "مقر الدائرة البلدية بشط السلام",
        "mun": "قابس",
        "city": "قابس"
    },
    {
        "city_en": "Gabes",
        "latlon": "33.849234, 10.112757",
        "type": "c",
        "title": "مغازة MG",
        "mun": "طبلبو",
        "city": "قابس"
    },
    {
        "city_en": "Gabes",
        "latlon": "33.891086, 9.803836",
        "type": "c",
        "title": "مغازة MG",
        "mun": "الحامة",
        "city": "قابس"
    },
    {
        "city_en": "Gabes",
        "latlon": "33.880997, 10.092053",
        "type": "c",
        "title": "مغازة MG المنزل",
        "mun": "قابس",
        "city": "قابس"
    },
    {
        "city_en": "Gabes",
        "latlon": "33.884677, 10.103603",
        "type": "c",
        "title": "مغازة MG باب البحر",
        "mun": "قابس",
        "city": "قابس"
    },
    {
        "city_en": "Gabes",
        "latlon": "33.870120, 10.108576",
        "type": "c",
        "title": "مغازة كارفور",
        "mun": "قابس",
        "city": "قابس"
    },
    {
        "city_en": "Gabes",
        "latlon": "33.617267, 10.286796",
        "type": "s",
        "title": "مقر الصندوق الوطني للتأمين على المرض",
        "mun": "الحامة",
        "city": "قابس"
    },
    {
        "city_en": "Gabes",
        "latlon": "33.617267, 10.286796",
        "type": "sm",
        "title": "مقر  دائرة الحالة المدنية بمارث",
        "mun": "مارث",
        "city": "قابس"
    },
    {
        "city_en": "Kebilli",
        "latlon": "33.705148, 8.971034",
        "type": "c",
        "title": "مكتب المغازة العامة",
        "mun": "قبلي",
        "city": "قبلي"
    },
    {
        "city_en": "Kebilli",
        "latlon": "33.808598, 8.738182",
        "type": "sm",
        "title": "مكتب المجلس القروي ببشري / بلدية",
        "mun": "فطناسة",
        "city": "قبلي"
    },
    {
        "city_en": "Gafsa",
        "latlon": "34.248465, 9.251270",
        "type": "p",
        "title": "البريد",
        "mun": "بلخير",
        "city": "قفصة"
    },
    {
        "city_en": "Gafsa",
        "latlon": "34.419675, 8.784168",
        "type": "p",
        "title": "البريد 1",
        "mun": "قفصة",
        "city": "قفصة"
    },
    {
        "city_en": "Gafsa",
        "latlon": "34.422011, 8.787387",
        "type": "p",
        "title": "البريد 2",
        "mun": "قفصة",
        "city": "قفصة"
    },
    {
        "city_en": "Gafsa",
        "latlon": "34.431118, 8.782301",
        "type": "c",
        "title": "المغازة العامة",
        "mun": "قفصة",
        "city": "قفصة"
    },
    {
        "city_en": "Gafsa",
        "latlon": "34.431242, 8.781926",
        "type": "c",
        "title": "المغازة العامة",
        "mun": "قفصة",
        "city": "قفصة"
    },
    {
        "city_en": "Gafsa",
        "latlon": "34.417532, 8.790731",
        "type": "c",
        "title": "كارفور",
        "mun": "قفصة",
        "city": "قفصة"
    },
    {
        "city_en": "Medenine",
        "latlon": "33.342481, 10.490661",
        "type": "p",
        "title": "مكتب بريد",
        "mun": "مدنين",
        "city": "مدنين"
    },
    {
        "city_en": "Medenine",
        "latlon": "33.876978, 10.882476",
        "type": "p",
        "title": "مكتب بريد",
        "mun": "حومة السوق",
        "city": "مدنين"
    },
    {
        "city_en": "Manouba",
        "latlon": "36.832626, 10.039146",
        "type": "p",
        "title": "السوق االسبوعي سعيدة- مكتب بريد سعيدة",
        "mun": "وادي الليل",
        "city": "منوبة"
    },
    {
        "city_en": "Manouba",
        "latlon": "36.807957, 10.101569",
        "type": "s",
        "title": "الشركة التونسية للكهرباء والغاز",
        "mun": "منوبة",
        "city": "منوبة"
    },
    {
        "city_en": "Manouba",
        "latlon": "36.811694, 10.112620",
        "type": "s",
        "title": "الشركة الوطنية الستغالل وتوزيع المياه",
        "mun": "منوبة",
        "city": "منوبة"
    },
    {
        "city_en": "Manouba",
        "latlon": "36.800808, 10.108935",
        "type": "c",
        "title": "المغازة العامة الدندان",
        "mun": "الدندان",
        "city": "منوبة"
    },
    {
        "city_en": "Manouba",
        "latlon": "36.805976, 10.100103",
        "type": "c",
        "title": "كارفور قصرسعيد",
        "mun": "الدندان",
        "city": "منوبة"
    },
    {
        "city_en": "Manouba",
        "latlon": "36.758725, 10.020132",
        "type": "c",
        "title": "كارفور ماركت املرناقية",
        "mun": "املرناقية",
        "city": "منوبة"
    },
    {
        "city_en": "Manouba",
        "latlon": "36.807116, 10.102279",
        "type": "c",
        "title": "كارفور منوبة-",
        "mun": "منوبة",
        "city": "منوبة"
    },
    {
        "city_en": "Manouba",
        "latlon": "36.845724, 10.154696",
        "type": "c",
        "title": "كارفور وادي الليل",
        "mun": "وادي الليل",
        "city": "منوبة"
    },
    {
        "city_en": "Manouba",
        "latlon": "36.953826, 8.762026",
        "type": "c",
        "title": "مغازة عزيزة طبربة",
        "mun": "طبربة",
        "city": "منوبة"
    },
    {
        "city_en": "Manouba",
        "latlon": "36.835057, 10.089816",
        "type": "s",
        "title": "مكتب  صندوق التامين على المرض",
        "mun": "دوار هيشر",
        "city": "منوبة"
    },
    {
        "city_en": "Manouba",
        "latlon": "36.831442, 10.092101",
        "type": "p",
        "title": "مكتب البريد حي خالد ابن الوليد",
        "mun": "دوار هيشر",
        "city": "منوبة"
    },
    {
        "city_en": "Manouba",
        "latlon": "36.723308, 10.302841",
        "type": "sm",
        "title": "مكتب الفجة -بلدية الباستين-",
        "mun": "البساتين",
        "city": "منوبة"
    },
    {
        "city_en": "Manouba",
        "latlon": "37.239538, 9.913187",
        "type": "p",
        "title": "مكتب بريد البطان",
        "mun": "البطان",
        "city": "منوبة"
    },
    {
        "city_en": "Manouba",
        "latlon": "36.851862, 10.190028",
        "type": "p",
        "title": "مكتب بريد الجديدة",
        "mun": "الجديدة",
        "city": "منوبة"
    },
    {
        "city_en": "Manouba",
        "latlon": "36.837723, 10.144881",
        "type": "p",
        "title": "مكتب بريد برج العامري",
        "mun": "برج العامري",
        "city": "منوبة"
    },
    {
        "city_en": "Manouba",
        "latlon": "36.811396, 10.094440",
        "type": "p",
        "title": "مكتب بريد برج النور",
        "mun": "برج العامري",
        "city": "منوبة"
    },
    {
        "city_en": "Manouba",
        "latlon": "36.722961, 10.303268",
        "type": "p",
        "title": "مكتب بريد سيدي على الحطاب",
        "mun": "البساتين",
        "city": "منوبة"
    },
    {
        "city_en": "Manouba",
        "latlon": "36.849702, 9.935613",
        "type": "p",
        "title": "مكتب بريد شواط",
        "mun": "الجديدة",
        "city": "منوبة"
    },
    {
        "city_en": "Manouba",
        "latlon": "36.825159, 10.097055",
        "type": "c",
        "title": "منوبري دوار هيشر",
        "mun": "دوار هيشر",
        "city": "منوبة"
    },
    {
        "city_en": "Nabeul",
        "latlon": "36.451097, 10.727045",
        "type": "p",
        "title": "مركزبريد الحبيب ثامر",
        "mun": "نابل",
        "city": "نابل 1"
    },
    {
        "city_en": "Nabeul",
        "latlon": "36.453273, 10.733720",
        "type": "c",
        "title": "مركز تجاري MG",
        "mun": "نابل",
        "city": "نابل 1"
    },
    {
        "city_en": "Nabeul",
        "latlon": "36.845135, 11.094899",
        "type": "c",
        "title": "مركز تجاري MG",
        "mun": "قليبية",
        "city": "نابل 1"
    },
    {
        "city_en": "Nabeul",
        "latlon": "36.452369, 10.731038",
        "type": "c",
        "title": "مركز تجاري carrefour",
        "mun": "نابل",
        "city": "نابل 1"
    },
    {
        "city_en": "Nabeul",
        "latlon": "36.562568, 10.854095",
        "type": "c",
        "title": "مركز تجاري carrefour",
        "mun": "قربة",
        "city": "نابل 1"
    },
    {
        "city_en": "Nabeul",
        "latlon": "36.847265, 11.090536",
        "type": "c",
        "title": "مركز تجاري carrefour",
        "mun": "قليبية",
        "city": "نابل 1"
    },
    {
        "city_en": "Nabeul",
        "latlon": "36.448124, 10.737793",
        "type": "c",
        "title": "مركز تجاري monoprix",
        "mun": "نابل",
        "city": "نابل 1"
    },
    {
        "city_en": "Nabeul",
        "latlon": "36.577872, 10.859919",
        "type": "c",
        "title": "مركز تجاري monoprix",
        "mun": "قربة",
        "city": "نابل 1"
    },
    {
        "city_en": "Nabeul",
        "latlon": "36.780404, 10.986584",
        "type": "c",
        "title": "مركز تجاري monoprix",
        "mun": "منزل تميم",
        "city": "نابل 1"
    },
    {
        "city_en": "Nabeul",
        "latlon": "36.453291, 10.733699",
        "type": "c",
        "title": "مركز تجاري mg",
        "mun": "نابل",
        "city": "نابل 1"
    },
    {
        "city_en": "Nabeul",
        "latlon": "36.395746, 10.613533",
        "type": "c",
        "title": "المغازة العامة بالحمامات",
        "mun": "الحمامات",
        "city": "نابل 2"
    },
    {
        "city_en": "Nabeul",
        "latlon": "36.414499, 10.651513",
        "type": "c",
        "title": "كارفور المرازقة",
        "mun": "الحمامات",
        "city": "نابل 2"
    },
    {
        "city_en": "Nabeul",
        "latlon": "36.602026, 10.496595",
        "type": "c",
        "title": "مغازة كارفور",
        "mun": "قرمبالية",
        "city": "نابل 2"
    }
]
